City_ID,City,Lat,Lng,Max Temp,Humidity,Cloudiness,Wind Speed,Country,Date
0,lebu,-37.6167,-73.65,50.56,55,62,12.01,CL,1698615687
1,san patricio,28.017,-97.5169,89.55,58,64,11.48,US,1698615687
2,heilbad heiligenstadt,51.3833,10.1333,52.84,84,82,3.0,DE,1698615688
3,kas,36.2018,29.6377,71.38,67,100,3.47,TR,1698615688
4,taoudenni,22.6783,-3.9836,89.96,11,0,7.78,ML,1698615688
5,tucuma,-0.1833,-50.05,81.64,71,10,12.77,BR,1698615688
6,nuuk,64.1835,-51.7216,30.81,80,100,27.63,GL,1698615688
7,jipijapa,-1.3333,-80.5833,75.13,79,100,4.45,EC,1698615689
8,hermanus,-34.4187,19.2345,56.48,64,0,25.88,ZA,1698615689
9,wailua homesteads,22.0669,-159.378,81.39,70,0,8.05,US,1698615689
10,ushuaia,-54.8,-68.3,31.66,86,100,20.71,AR,1698615689
11,lata,40.1629,-8.3327,62.82,96,62,4.7,PT,1698615689
12,tromso,69.6496,18.957,26.62,93,40,6.91,NO,1698615689
13,sipalay,9.75,122.5,76.21,91,26,4.38,PH,1698615690
14,tiksi,71.6872,128.8694,3.09,99,91,6.44,RU,1698615690
15,vilyuchinsk,52.9306,158.4028,38.93,80,93,4.41,RU,1698615690
16,nar'yan-mar,67.6713,53.087,16.11,86,100,13.0,RU,1698615690
17,boali,4.8005,18.1275,73.22,92,82,2.57,CF,1698615690
18,udachny,66.4167,112.4,-9.38,98,74,3.65,RU,1698615690
19,anina,45.0794,21.8569,58.15,68,3,6.04,RO,1698615691
20,la passe,45.5549,-0.8967,55.63,90,100,6.73,FR,1698615493
21,olonkinbyen,70.9221,-8.7187,32.54,69,100,3.74,SJ,1698615691
22,mary,37.0,62.5,70.77,29,64,8.7,TM,1698615691
23,chernyshevskiy,63.0128,112.4714,12.72,96,100,3.47,RU,1698615692
24,severo-yeniseyskiy,60.3725,93.0408,4.57,99,93,1.99,RU,1698615692
25,vershino-darasunskiy,52.35,115.5167,10.27,51,20,3.65,RU,1698615692
26,kerikeri,-35.2268,173.9474,63.91,95,100,3.0,NZ,1698615692
27,kencong,-8.2833,113.3667,73.89,91,81,2.71,ID,1698615693
28,quellon,-43.1167,-73.6167,43.81,81,95,17.58,CL,1698615693
29,conde,-7.2597,-34.9075,78.26,78,40,10.36,BR,1698615693
30,grytviken,-54.2811,-36.5092,39.92,97,100,9.1,GS,1698615684
31,longyearbyen,78.2186,15.6401,24.64,86,40,8.05,SJ,1698615475
32,freetown,8.484,-13.2299,82.11,78,40,9.22,SL,1698615694
33,tebingtinggi,3.3285,99.1625,73.56,94,94,2.08,ID,1698615694
34,juneau,58.3019,-134.4197,40.41,93,100,11.5,US,1698615694
35,hawaiian paradise park,19.5933,-154.9731,83.71,74,20,11.5,US,1698615694
36,port-aux-francais,-49.35,70.2167,34.38,82,100,24.94,TF,1698615464
37,fada,9.5667,8.3,73.92,58,80,2.39,NG,1698615694
38,korla,41.7597,86.1469,50.4,43,83,2.39,CN,1698615694
39,marsa alam,25.0757,34.8918,80.62,72,56,4.05,EG,1698615695
40,qaqortoq,60.7167,-46.0333,40.6,64,100,12.57,GL,1698615695
41,tolanaro,-25.0319,46.9987,75.27,73,0,6.91,MG,1698615695
42,betio village,1.358,172.9211,86.04,72,100,8.81,KI,1698615695
43,layyah,30.9613,70.939,75.06,31,71,4.61,PK,1698615695
44,itoman,26.1247,127.6694,72.37,65,20,9.22,JP,1698615692
45,port lincoln,-34.7333,135.8667,58.41,78,19,16.84,AU,1698615696
46,santiago,-33.4569,-70.6483,63.55,68,75,9.22,CL,1698615696
47,adamstown,-25.066,-130.1015,72.28,83,97,14.29,PN,1698615687
48,rongelap,11.1635,166.8941,83.64,71,96,18.19,MH,1698615696
49,albany,42.6001,-73.9662,44.53,92,100,3.18,US,1698615430
50,blackmans bay,-43.0167,147.3167,57.72,62,86,1.01,AU,1698615696
51,upata,8.0086,-62.3989,79.84,71,91,3.49,VE,1698615559
52,karatau,43.1667,70.4667,61.0,47,88,6.98,KZ,1698615697
53,el abiodh sidi cheikh,32.893,0.5484,69.06,26,99,9.57,DZ,1698615697
54,richards bay,-28.783,32.0377,61.56,58,100,14.83,ZA,1698615697
55,sur,22.5667,59.5289,80.11,67,70,7.61,OM,1698615697
56,bilibino,68.0546,166.4372,-9.29,90,11,5.03,RU,1698615463
57,khorugh,37.4897,71.553,46.72,60,4,2.04,TJ,1698615698
58,nishinoomote,30.7333,131.0,68.92,51,17,6.02,JP,1698615698
59,brisas de zicatela,15.8369,-97.0419,86.52,51,75,5.75,MX,1698615698
60,vadso,70.0744,29.7487,21.36,86,75,6.91,NO,1698615698
61,jimo,36.3897,120.4622,58.78,94,2,6.71,CN,1698615698
62,nianzishan,47.5167,122.8833,36.28,25,45,11.23,CN,1698615698
63,carrigaline,51.8117,-8.3986,49.75,93,100,5.75,IE,1698615698
64,kayyerkan,69.3786,87.7439,-0.71,84,93,1.23,RU,1698615699
65,saint-francois,46.4154,3.9054,53.65,100,0,1.14,FR,1698615699
66,edinburgh of the seven seas,-37.0676,-12.3116,51.76,64,73,27.27,SH,1698615699
67,constantia,44.1833,28.65,54.7,67,0,8.19,RO,1698615594
68,puerto natales,-51.7236,-72.4875,43.68,58,97,10.63,CL,1698615699
69,viedma,-40.8135,-62.9967,63.84,16,100,18.77,AR,1698615699
70,tura,25.5198,90.2201,66.29,92,10,3.76,IN,1698615461
71,yeed,4.55,43.0333,72.37,89,100,15.19,SO,1698615700
72,sarmiento,-45.5882,-69.07,43.77,53,84,20.11,AR,1698615700
73,auxerre,47.8,3.5667,52.63,84,100,11.18,FR,1698615700
74,papatowai,-46.5619,169.4708,56.37,54,10,6.35,NZ,1698615700
75,yellowknife,62.456,-114.3525,25.41,76,75,12.66,CA,1698615460
76,waitangi,-43.9535,-176.5597,55.81,71,5,1.99,NZ,1698615682
77,margaret river,-33.95,115.0667,54.66,63,90,10.8,AU,1698615701
78,fale old settlement,-9.3852,-171.2468,83.95,69,95,12.01,TK,1698615521
79,thompson,55.7435,-97.8558,26.76,68,75,6.91,CA,1698615701
80,mana,5.6592,-53.7767,81.18,83,90,14.07,GF,1698615701
81,jamai,22.2,78.5833,62.42,50,11,2.46,IN,1698615701
82,qusmuryn,52.4503,64.6311,45.0,92,92,11.27,KZ,1698615702
83,grootfontein,-19.5667,18.1167,76.64,18,18,3.53,NA,1698615702
84,new norfolk,-42.7826,147.0587,58.91,70,97,8.55,AU,1698615702
85,invercargill,-46.4,168.35,60.03,56,10,3.0,NZ,1698615702
86,whitehorse,60.7161,-135.0538,29.17,86,100,18.41,CA,1698615493
87,xilin hot,43.9667,116.0333,29.97,43,16,3.31,CN,1698615702
88,bethel,41.3712,-73.414,49.89,87,100,6.91,US,1698615603
89,defuniak springs,30.721,-86.1152,87.98,45,0,3.44,US,1698615682
90,avarua,-21.2078,-159.775,75.25,64,75,8.05,CK,1698615573
91,kamyzyak,46.11,48.0736,48.18,93,0,8.95,RU,1698615703
92,youhao,47.8667,128.8333,40.6,58,100,1.77,CN,1698615703
93,tazacorte,28.629,-17.9293,72.57,84,20,6.91,ES,1698615703
94,nantucket,41.2835,-70.0995,53.71,77,100,13.8,US,1698615473
95,west island,-12.1568,96.8225,78.78,78,100,14.97,CC,1698615461
96,beroroha,-21.6667,45.1667,75.0,47,0,3.42,MG,1698615703
97,inarajan village,13.2736,144.7484,84.4,89,17,9.64,GU,1698615704
98,mount gambier,-37.8333,140.7667,50.68,95,84,7.61,AU,1698615704
99,ilulissat,69.2167,-51.1,24.82,74,100,3.44,GL,1698615704
100,cabo san lucas,22.8909,-109.9124,86.61,61,0,11.5,MX,1698615530
101,stanley,54.868,-1.6985,46.53,95,75,8.05,GB,1698615693
102,ceerigaabo,10.6162,47.368,62.24,75,100,5.66,SO,1698615704
103,altai,46.3722,96.2583,33.71,66,82,18.99,MN,1698615704
104,satipo,-11.2522,-74.6386,76.23,91,100,1.54,PE,1698615704
105,tyukhtet,56.5389,89.3011,17.42,95,10,3.98,RU,1698615705
106,port mathurin,-19.6833,63.4167,76.21,79,10,15.66,MU,1698615693
107,pariaman,-0.619,100.12,77.05,90,99,3.44,ID,1698615705
108,alice springs,-23.7,133.8833,58.55,20,44,2.3,AU,1698615498
109,college,64.8569,-147.8028,34.81,71,75,4.61,US,1698615705
110,carnarvon,-24.8667,113.6333,65.68,77,0,23.78,AU,1698615705
111,cao bang,22.6667,106.25,65.41,96,100,2.55,VN,1698615705
112,san pedro de ycuamandiyu,-24.0917,-57.0764,86.52,56,85,3.11,PY,1698615705
113,aasiaat,68.7098,-52.8699,20.77,79,100,2.28,GL,1698615706
114,bredasdorp,-34.5322,20.0403,56.07,61,0,19.53,ZA,1698615706
115,aioun,16.6614,-9.6149,93.06,18,39,4.0,MR,1698615706
116,zhengjiatun,43.5064,123.5064,49.03,41,83,12.1,CN,1698615706
117,port alfred,-33.5906,26.891,58.46,65,91,15.41,ZA,1698615706
118,kone,-21.0595,164.8658,75.27,45,10,6.82,NC,1698615469
119,flying fish cove,-10.4217,105.6791,76.68,94,40,6.91,CX,1698615707
120,puerto ayora,-0.7393,-90.3518,82.36,87,43,8.99,EC,1698615707
121,novo aripuana,-5.1206,-60.3797,91.8,33,61,2.46,BR,1698615707
122,baotou,40.6522,109.8222,48.34,39,20,3.74,CN,1698615707
123,voi,-3.3945,38.563,74.23,81,89,7.99,KE,1698615707
124,rio gallegos,-51.6226,-69.2181,48.25,31,0,18.41,AR,1698615707
125,camana,-16.6228,-72.7111,68.95,81,31,10.27,PE,1698615707
126,valparaiso,-33.0393,-71.6273,63.0,80,100,11.5,CL,1698615602
127,ubinskoye,55.3068,79.6802,20.71,85,100,7.9,RU,1698615708
128,labytnangi,66.6572,66.4183,6.31,98,98,3.62,RU,1698615503
129,ntui,4.45,11.6333,71.38,90,85,1.36,CM,1698615708
130,selfoss,63.9331,-20.9971,32.04,70,73,6.31,IS,1698615708
131,lihue,21.9789,-159.3672,81.99,68,0,8.05,US,1698615492
132,pamandzi,-12.7967,45.2794,80.38,83,20,6.91,YT,1698615708
133,preobrazheniye,42.9019,133.9064,43.57,55,9,7.29,RU,1698615709
134,olovyannaya,50.95,115.5667,17.64,41,3,3.29,RU,1698615709
135,tucupita,9.0622,-62.051,82.83,75,94,5.77,VE,1698615709
136,badiyah,22.45,58.8,76.26,66,95,2.1,OM,1698615709
137,nanlong,31.3533,106.0631,61.47,81,1,1.03,CN,1698615709
138,ribeira grande,38.5167,-28.7,59.4,77,40,5.75,PT,1698615709
139,karungdong,5.8844,121.263,79.99,78,70,0.74,PH,1698615709
140,haiku-pauwela,20.9219,-156.3051,82.42,62,20,20.71,US,1698615695
141,ulladulla,-35.35,150.4667,71.64,34,91,7.85,AU,1698615710
142,prineville,44.2999,-120.8345,54.12,33,0,4.61,US,1698615710
143,maneromango,-7.1988,38.7848,71.89,94,79,1.36,TZ,1698615710
144,pont rouge,48.8833,-72.0825,35.89,49,82,4.81,CA,1698615710
145,colonia,50.9333,6.95,56.82,75,58,1.99,DE,1698615465
146,kodiak,57.79,-152.4072,45.91,100,100,9.22,US,1698615710
147,siwa oasis,29.2041,25.5195,74.43,62,6,9.91,EG,1698615711
148,papao,-17.75,-149.55,82.08,81,3,16.73,PF,1698615711
149,hirara,24.8,125.2833,73.67,73,77,9.22,JP,1698615711
150,swan hill,-35.3378,143.5544,59.09,49,100,8.93,AU,1698615711
151,genet,9.0667,38.5,59.92,92,10,1.34,ET,1698615711
152,vashkivtsi,48.3849,25.5102,53.64,68,80,6.53,UA,1698615711
153,sitka,57.0531,-135.33,46.29,66,75,0.0,US,1698615711
154,garoowe,8.4054,48.4845,75.4,77,86,12.75,SO,1698615711
155,remire-montjoly,4.9167,-52.2667,84.24,79,0,8.05,GF,1698615712
156,iskateley,67.6803,53.1512,16.02,86,100,13.0,RU,1698615699
157,lorengau,-2.0226,147.2712,78.35,87,100,9.26,PG,1698615712
158,luderitz,-26.6481,15.1594,72.43,32,0,12.17,NA,1698615712
159,mhamid,29.82,-5.72,77.61,22,97,15.39,MA,1698615712
160,nadym,65.5333,72.5167,10.87,98,93,2.84,RU,1698615467
161,utrik,11.2278,169.8474,82.9,82,29,19.22,MH,1698615703
162,santa eularia des riu,38.9846,1.5341,68.02,76,0,10.36,ES,1698615712
163,bubaque,11.2833,-15.8333,82.87,75,18,8.75,GW,1698615713
164,saipan,15.1355,145.701,83.1,83,20,6.91,MP,1698615487
165,kristiansund,63.1115,7.732,34.45,80,0,5.75,NO,1698615713
166,kamina,-8.7386,24.9906,67.57,86,85,1.48,CD,1698615713
167,saldanha,-33.0117,17.9442,60.85,58,0,15.57,ZA,1698615713
168,kingston,17.997,-76.7936,86.95,76,20,9.22,JM,1698615713
169,port elizabeth,-33.918,25.5701,58.32,72,75,5.75,ZA,1698615713
170,mount isa,-20.7333,139.5,71.37,78,93,0.0,AU,1698615714
171,labuan,5.2767,115.2417,77.36,100,20,0.0,MY,1698615714
172,vila franca do campo,37.7167,-25.4333,59.41,99,51,5.55,PT,1698615486
173,jatiroto,-7.8833,111.1167,73.67,87,41,3.2,ID,1698615714
174,rreshen,41.7675,19.8756,59.97,69,0,4.45,AL,1698615714
175,bijawar,24.6333,79.5,67.19,46,7,3.04,IN,1698615714
176,san antonio de pale,-1.4014,5.6325,79.63,82,4,9.17,GQ,1698615714
177,at taraf,25.3628,49.725,77.54,80,72,3.36,SA,1698615714
178,daru,-9.0763,143.2092,77.68,87,100,16.71,PG,1698615715
179,uturoa,-16.7333,-151.4333,79.18,79,15,13.89,PF,1698615715
180,lyozna,55.0249,30.7956,31.26,89,100,10.42,BY,1698615715
181,klyuchi,52.2667,79.1667,31.1,92,100,3.02,RU,1698615715
182,al burayqah,30.4062,19.5739,74.17,70,3,11.92,LY,1698615715
183,prabumulih,-3.45,104.25,69.6,93,14,3.15,ID,1698615715
184,i-n-salah,27.1935,2.4607,85.08,16,87,5.32,DZ,1698615715
185,howrah,22.5892,88.3103,73.4,88,20,3.44,IN,1698615716
186,iqaluit,63.7506,-68.5145,19.13,68,75,11.5,CA,1698615716
187,ola,59.5833,151.2833,28.18,67,14,4.74,RU,1698615716
188,kibre mengist,5.8833,38.9833,58.26,98,86,1.16,ET,1698615716
189,tazovsky,67.4667,78.7,3.15,94,14,2.66,RU,1698615716
190,canico,32.6333,-16.85,70.72,82,40,9.22,PT,1698615716
191,crane,31.3974,-102.3501,39.78,82,100,20.85,US,1698615717
192,illapel,-31.6308,-71.1653,64.0,61,15,7.2,CL,1698615717
193,sirjan,29.452,55.6814,63.39,51,37,5.48,IR,1698615717
194,sai buri,6.7013,101.6168,76.66,87,86,3.2,TH,1698615717
195,pimentel,-6.8367,-79.9342,75.49,69,0,24.16,PE,1698615717
196,maxixe,-23.8597,35.3472,69.44,77,100,18.57,MZ,1698615717
197,ust-nera,64.5667,143.2,-0.62,97,60,1.54,RU,1698615696
198,saijo,33.9167,133.1833,54.14,76,9,3.89,JP,1698615718
199,les cayes,18.2,-73.75,82.98,72,81,6.13,HT,1698615718
200,arteche,12.2645,125.4048,79.16,89,100,9.42,PH,1698615718
201,antsohihy,-14.8796,47.9875,78.42,80,2,3.36,MG,1698615718
202,charters towers,-20.1,146.2667,71.92,52,42,10.22,AU,1698615718
203,pocone,-16.2567,-56.6228,85.98,53,77,4.54,BR,1698615718
204,punta arenas,-53.15,-70.9167,46.51,57,40,16.11,CL,1698615694
205,gumrak,48.7826,44.3824,39.11,100,0,6.71,RU,1698615502
206,kazanlak,42.6167,25.4,53.17,69,0,1.25,BG,1698615719
207,badger,64.8,-147.5333,34.72,76,75,4.61,US,1698615489
208,warner robins,32.621,-83.5999,84.36,46,0,6.91,US,1698615719
209,ulsteinvik,62.3432,5.8487,41.76,57,0,13.0,NO,1698615719
210,newman,37.3138,-121.0208,70.23,29,0,5.01,US,1698615719
211,peterhead,57.5058,-1.7981,46.8,74,100,19.71,GB,1698615719
212,vinh,18.6667,105.6667,73.31,96,99,10.92,VN,1698615720
213,gornozavodsk,58.3758,58.3211,24.08,80,100,15.12,RU,1698615720
214,darwin,-12.4611,130.8418,80.94,84,75,3.0,AU,1698615720
215,kyosai,34.8503,128.5886,48.16,73,7,2.26,KR,1698615720
216,jamestown,42.097,-79.2353,48.02,95,100,5.75,US,1698615461
217,st. john's,47.5649,-52.7093,44.15,71,75,19.57,CA,1698615712
218,cape coast,5.1053,-1.2466,79.63,85,9,6.15,GH,1698615721
219,port-gentil,-0.7193,8.7815,79.39,87,32,10.58,GA,1698615721
220,cedeira,43.6797,-8.0209,54.37,77,100,19.3,ES,1698615721
221,veinticinco de mayo,-35.4323,-60.1727,68.99,75,100,7.0,AR,1698615721
222,belem de sao francisco,-8.7539,-38.9658,87.51,32,21,22.28,BR,1698615721
223,pohrebyshche,49.4864,29.2636,51.66,65,66,10.36,UA,1698615721
224,dellys,36.9172,3.9131,69.55,70,96,3.71,DZ,1698615722
225,cavelossim,15.1726,73.9419,79.27,81,90,2.93,IN,1698615722
226,steinkjer,64.193,11.3851,22.14,80,100,1.79,NO,1698615722
227,atafu village,-8.5421,-172.5159,84.09,71,97,11.05,TK,1698615722
228,san matias,-16.3667,-58.4,89.51,46,66,6.91,BO,1698615722
229,tadine,-21.55,167.8833,71.67,56,13,11.81,NC,1698615723
230,ovalle,-30.5983,-71.2003,67.96,47,7,8.3,CL,1698615723
231,karratha,-20.7377,116.8463,81.01,59,94,5.7,AU,1698615723
232,shirvan,39.9509,48.8994,68.59,45,92,9.17,AZ,1698615723
233,berdigestyakh,62.0989,126.6992,-9.58,100,76,2.04,RU,1698615723
234,midvagur,62.0511,-7.1939,41.83,75,75,4.61,FO,1698615724
235,kyabe,9.4515,18.9449,74.7,78,55,3.4,TD,1698615724
236,afaahiti,-17.75,-149.2833,80.47,82,36,14.65,PF,1698615490
237,marabba,12.35,32.1833,77.97,70,66,8.16,SD,1698615724
238,boyolangu,-8.1181,111.8935,74.05,93,73,2.15,ID,1698615724
239,balaklava,44.5,33.6,61.97,54,0,5.03,UA,1698615724
240,quibdo,5.6947,-76.6611,82.74,78,75,8.05,CO,1698615724
241,wisch,51.9265,6.4171,54.05,84,23,4.0,NL,1698615725
242,pandan,14.0453,124.1694,81.03,81,84,13.11,PH,1698615725
243,tongging,2.8969,98.5262,67.91,92,100,0.85,ID,1698615725
244,la'ie,21.6477,-157.9253,85.1,69,3,5.01,US,1698615725
245,leticia,-4.2153,-69.9406,73.45,94,75,4.61,CO,1698615725
246,al artawiyah,26.5053,45.3444,73.42,28,100,6.44,SA,1698615725
247,piacabucu,-10.4056,-36.4344,75.18,77,76,9.75,BR,1698615726
248,holualoa,19.6228,-155.9522,82.54,73,20,10.36,US,1698615726
249,mount pleasant,32.7941,-79.8626,82.54,75,0,9.22,US,1698615703
250,mount pearl,47.5166,-52.7813,43.32,71,75,19.57,CA,1698615710
251,hami,42.8,93.45,51.49,40,78,3.18,CN,1698615726
252,guerrero negro,27.9769,-114.0611,74.32,53,0,13.78,MX,1698615727
253,kulhudhuffushi,6.6221,73.07,81.41,73,100,7.43,MV,1698615727
254,hobyo,5.3505,48.5268,75.38,95,100,5.48,SO,1698615727
255,amungan,15.3652,119.9582,78.51,77,30,4.23,PH,1698615727
256,chiang kham,19.5233,100.3,69.28,97,100,1.99,TH,1698615727
257,khandyga,62.6667,135.6,20.26,97,100,1.83,RU,1698615728
258,aguadilla,18.4275,-67.1541,84.65,86,0,1.99,PR,1698615728
259,prainha,-1.8,-53.48,89.94,39,17,5.06,BR,1698615728
260,taipei,25.0478,121.5319,77.02,70,75,9.22,TW,1698615728
261,talnakh,69.4865,88.3972,-0.8,93,60,3.4,RU,1698615728
262,georgetown,5.4112,100.3354,78.03,97,20,3.44,MY,1698615728
263,bossier city,32.516,-93.7321,82.89,69,40,11.5,US,1698615559
264,metlili chaamba,32.2667,3.6333,79.74,16,40,4.61,DZ,1698615729
265,stephenville,32.2207,-98.2023,41.13,93,100,18.41,US,1698615729
266,tsiombe,-25.3,45.4833,71.82,84,0,4.27,MG,1698615729
267,naze,28.3667,129.4833,63.52,71,23,6.02,JP,1698615729
268,namibe,-15.1961,12.1522,68.14,85,14,1.9,AO,1698615462
269,dubbo,-32.25,148.6167,64.53,42,1,5.75,AU,1698615730
270,chulakkurgan,43.765,69.1814,60.13,51,86,4.29,KZ,1698615730
271,ravar,31.2656,56.8055,66.6,39,1,3.53,IR,1698615730
272,dudinka,69.4058,86.1778,1.67,98,64,4.0,RU,1698615520
273,bodrum,37.0383,27.4292,71.08,83,99,5.82,TR,1698615652
274,muntok,-2.0667,105.1833,77.68,82,41,7.2,ID,1698615731
275,qulsary,46.9531,54.0198,53.17,66,9,15.95,KZ,1698615731
276,galle,6.0367,80.217,76.33,87,98,3.83,LK,1698615475
277,rakops,-21.0167,24.3333,76.53,52,78,18.81,BW,1698615731
278,pyt-yakh,60.7499,72.8582,15.66,92,12,4.81,RU,1698615731
279,happy valley-goose bay,53.3168,-60.3315,34.11,51,75,25.32,CA,1698615731
280,tulun,54.5611,100.5792,16.09,72,26,3.71,RU,1698615732
281,laojunmiao,39.8333,97.7333,46.27,28,78,7.0,CN,1698615732
282,nguigmi,14.2495,13.1092,84.94,23,57,10.42,NE,1698615732
283,bor,56.3567,44.0669,32.0,94,100,11.39,RU,1698615732
284,afua,-0.1567,-50.3867,81.95,69,8,12.55,BR,1698615732
285,mbanza kongo,-6.267,14.2401,74.08,89,82,3.87,AO,1698615732
286,ugoofaaru,5.6667,73.0,79.84,83,100,17.45,MV,1698615733
287,west plains,36.7281,-91.8524,45.43,86,100,9.22,US,1698615733
288,pascagoula,30.3658,-88.5561,81.32,66,0,8.05,US,1698615733
289,la ronge,55.1001,-105.2842,30.45,69,75,18.41,CA,1698615733
290,saint-philippe,-21.3585,55.7679,76.59,87,47,10.4,RE,1698615733
291,wasaga beach,44.5168,-80.0164,46.8,72,100,4.43,CA,1698615733
292,la nucia,38.6137,-0.1269,62.38,61,99,6.76,ES,1698615734
293,kuanda,56.3161,116.0806,12.6,69,19,0.18,RU,1698615734
294,balabac,7.9868,117.0645,81.93,78,41,9.86,PH,1698615734
295,kibaya,-5.3,36.5667,64.6,69,51,6.51,TZ,1698615734
296,saint croix,17.7397,-64.7388,84.65,86,0,6.91,VI,1698615734
297,chibougamau,49.9168,-74.3659,29.82,64,100,4.61,CA,1698615734
298,jumla,29.2747,82.1838,44.17,75,0,4.74,NP,1698615735
299,shanwei,22.782,115.3475,73.35,81,89,8.88,CN,1698615735
300,katoomba,-33.7198,150.3074,69.85,29,27,3.0,AU,1698615735
301,shimoda,34.6667,138.95,55.11,65,0,2.82,JP,1698615735
302,hasaki,35.7333,140.8333,50.4,66,0,17.87,JP,1698615527
303,kyzyl-suu,42.3414,78.0056,48.4,50,100,7.45,KG,1698615735
304,oltinko'l,40.8011,72.1634,64.54,37,79,3.49,UZ,1698615735
305,bereznik,62.8551,42.7072,23.05,97,94,4.52,RU,1698615736
306,ta`u,-14.2336,-169.5144,80.67,81,42,14.65,AS,1698615736
307,singoli,24.9667,75.3,71.24,45,39,3.15,IN,1698615736
308,baneh,35.9975,45.8853,53.02,50,93,1.7,IR,1698615736
309,sirte,31.2089,16.5887,73.62,71,20,10.31,LY,1698615737
310,chonchi,-42.6128,-73.8092,42.12,71,54,12.06,CL,1698615737
311,babatngon,11.4238,124.8449,77.31,91,32,2.89,PH,1698615737
312,viana do castelo,41.6932,-8.8329,57.58,76,53,14.72,PT,1698615737
313,al hudaydah,14.7978,42.9545,83.61,74,91,12.12,YE,1698615737
314,byron bay,-28.65,153.6167,67.71,63,0,7.83,AU,1698615738
315,mora,11.0461,14.1401,83.03,35,28,2.71,CM,1698615738
316,yamba,-5.9,22.3,75.78,78,56,0.22,CD,1698615738
317,meulaboh,4.1363,96.1285,75.63,91,100,2.26,ID,1698615738
318,pontianak,-0.0333,109.3333,76.98,94,100,3.44,ID,1698615738
319,tual,-5.6667,132.75,81.27,81,100,10.11,ID,1698615739
320,nemuro,43.3236,145.575,49.41,70,17,8.97,JP,1698615711
321,aykhal,66.0,111.5,-15.23,99,44,4.32,RU,1698615739
322,las tablas,7.7667,-80.2833,82.54,76,100,6.89,PA,1698615739
323,jiuquan,39.7432,98.5174,49.01,29,54,3.31,CN,1698615739
324,jayapura,-2.5333,140.7,78.19,88,49,6.11,ID,1698615739
325,petropavlovsk-kamchatsky,53.0452,158.6483,37.45,59,100,6.71,RU,1698615488
326,trindade,-16.6494,-49.4889,91.15,44,82,2.13,BR,1698615740
327,sabang,5.8933,95.3214,80.47,76,89,1.3,ID,1698615727
328,tafuna,-14.3358,-170.72,85.95,74,40,9.22,AS,1698615740
329,moree,-29.4667,149.85,71.26,43,0,17.94,AU,1698615741
330,tutong,4.8,114.65,77.09,90,96,3.4,BN,1698615741
331,bikenibeu village,1.3673,173.1241,85.96,74,20,4.61,KI,1698615741
332,acarau,-2.8856,-40.12,80.22,73,39,16.67,BR,1698615741
333,lazaro cardenas,17.9583,-102.2,84.38,74,29,10.2,MX,1698615529
334,hammerfest,70.6634,23.6821,23.45,80,40,0.0,NO,1698615611
335,palmer,42.1584,-72.3287,48.24,84,100,8.05,US,1698615542
336,noshiro,40.2039,140.0242,52.68,82,48,3.31,JP,1698615742
337,abu,24.6,72.7,64.47,37,51,3.18,IN,1698615742
338,vorkuta,67.5,64.0,-0.04,98,24,4.68,RU,1698615742
339,sainte-suzanne,-20.9061,55.6089,77.22,93,20,9.22,RE,1698615742
340,susuman,62.7833,148.1667,-0.02,99,96,1.01,RU,1698615742
341,undurkhaan,47.3194,110.6556,28.02,58,32,4.63,MN,1698615743
342,toliara,-23.35,43.6667,72.46,80,3,6.38,MG,1698615743
343,uberlandia,-18.9186,-48.2772,85.21,48,20,0.0,BR,1698615743
344,hovd,48.0056,91.6419,32.99,63,42,0.85,MN,1698615743
345,mukalla,14.5425,49.1242,78.93,71,99,4.85,YE,1698615743
346,fuyu,45.1833,124.8167,46.06,45,100,12.12,CN,1698615743
347,gargalianoi,37.0667,21.6333,67.35,76,44,7.11,GR,1698615743
348,neryungri,56.6709,124.6491,13.42,93,100,8.21,RU,1698615744
349,enewetak,11.3474,162.3373,83.66,76,50,20.04,MH,1698615706
350,port saint john's,-31.6229,29.5448,58.78,62,100,7.67,ZA,1698615744
351,shulan,44.4167,126.95,50.52,71,74,11.07,CN,1698615744
352,monte argentario,42.4345,11.1195,69.6,86,97,22.1,IT,1698615744
353,lompoc,34.6391,-120.4579,78.94,43,0,12.66,US,1698615745
354,vicuna,-30.0319,-70.7081,74.77,41,15,7.92,CL,1698615745
355,puerto armuelles,8.2833,-82.8667,84.18,75,36,10.0,PA,1698615745
356,bishkul,54.7803,69.1033,30.07,94,100,18.28,KZ,1698615745
357,kuybyshev,55.4475,78.3218,21.13,84,100,8.61,RU,1698615745
358,kill devil hills,36.0307,-75.676,75.22,66,0,12.66,US,1698615693
359,riacho de santana,-13.6092,-42.9389,87.35,28,44,11.1,BR,1698615745
360,kindu,-2.95,25.95,73.29,84,94,2.93,CD,1698615746
361,broken hill,-31.95,141.4333,63.5,36,30,9.51,AU,1698615506
362,ghat,24.9647,10.1728,79.57,20,11,7.49,LY,1698615746
363,plouzane,48.3833,-4.6167,55.45,77,75,17.27,FR,1698615746
364,vernon,50.2581,-119.2691,47.75,50,25,3.44,CA,1698615746
365,fort bragg,35.139,-79.006,82.98,49,0,11.5,US,1698615746
366,manicore,-5.8092,-61.3003,90.12,35,98,2.8,BR,1698615747
367,olhao,37.0286,-7.8411,65.08,82,75,18.41,PT,1698615747
368,albertina,-22.2008,-46.6158,72.41,77,100,3.71,BR,1698615747
369,chebba,35.2372,11.115,75.94,80,100,14.83,TN,1698615747
370,jinxiang,27.4327,120.6062,63.88,83,0,5.75,CN,1698615747
371,pechora,65.1472,57.2244,15.85,80,100,4.0,RU,1698615748
372,ebeltoft,56.1944,10.6821,51.82,87,100,3.44,DK,1698615748
373,hithadhoo,-0.6,73.0833,80.42,82,99,15.68,MV,1698615479
374,sotouboua,8.5667,0.9833,80.64,66,3,1.83,TG,1698615748
375,hadibu,12.65,54.0333,78.66,76,57,7.54,YE,1698615748
376,puerto deseado,-47.7503,-65.8938,42.67,73,71,25.05,AR,1698615748
377,les anglais,18.3054,-74.2197,82.67,76,90,3.62,HT,1698615749
378,kalajoki,64.25,23.95,30.9,89,98,2.48,FI,1698615749
379,burao,9.5221,45.5336,72.18,69,82,8.1,SO,1698615749
380,chegdomyn,51.1167,133.0167,31.41,69,97,1.32,RU,1698615749
381,manokwari,-0.8667,134.0833,79.09,78,47,1.16,ID,1698615749
382,belyy yar,53.6039,91.3903,17.49,86,0,0.0,RU,1698615749
383,tayshet,55.9342,98.0044,18.0,68,1,3.38,RU,1698615750
384,cova figueira,14.8905,-24.2934,73.58,74,68,8.9,CV,1698615750
385,minas de marcona,-15.2119,-75.1103,64.08,71,57,16.06,PE,1698615750
386,vila velha,-20.3297,-40.2925,78.75,78,0,23.02,BR,1698615750
387,cole harbour,44.6724,-63.4751,47.68,62,100,11.5,CA,1698615750
388,palembang,-2.9167,104.7458,75.29,88,75,3.44,ID,1698615750
389,san lawrenz,36.0553,14.204,72.81,83,69,9.37,MT,1698615476
390,itanhem,-17.1664,-40.33,77.56,61,28,13.78,BR,1698615751
391,yaiza,28.9633,-13.7631,71.37,73,20,4.61,ES,1698615751
392,provins,48.5833,3.1667,55.36,82,99,12.62,FR,1698615751
393,sittwe,20.15,92.9,76.32,82,80,4.79,MM,1698615751
394,eyl,7.9803,49.8164,79.63,78,100,9.37,SO,1698615751
395,yanchep,-31.55,115.6833,55.53,68,53,11.12,AU,1698615752
396,sao tome,0.3365,6.7273,79.84,85,19,4.43,ST,1698615752
397,castillos,-34.1667,-53.8333,61.88,92,15,4.99,UY,1698615752
398,brookings,44.3114,-96.7984,34.18,63,75,12.66,US,1698615512
399,nouadhibou,20.931,-17.0347,69.78,88,0,14.97,MR,1698615752
400,rahuri,19.3833,74.65,67.98,47,64,3.38,IN,1698615753
401,el gouna,27.3942,33.6782,80.69,76,57,4.14,EG,1698615753
402,grand falls-windsor,48.9332,-55.6649,38.5,65,21,1.99,CA,1698615548
403,roxas,11.5853,122.7511,78.15,85,82,5.97,PH,1698615753
404,kontcha,7.9667,12.2333,77.47,61,13,2.42,CM,1698615753
405,keflavik,64.0049,-22.5624,39.63,81,75,5.75,IS,1698615753
406,boyalik,41.2634,28.6314,66.78,92,3,6.93,TR,1698615754
407,seven pagodas,12.6264,80.1722,78.85,74,51,8.66,IN,1698615754
408,shakawe,-18.3667,21.85,76.75,46,88,3.06,BW,1698615754
409,magadan,59.5667,150.8,26.38,75,21,3.53,RU,1698615497
410,manay,7.215,126.5397,77.04,82,25,4.34,PH,1698615754
411,tarawa,1.419,172.984,86.09,74,20,4.61,KI,1698615754
412,clarence town,-32.5833,151.7833,70.14,37,0,3.65,AU,1698615755
413,zouerate,22.7187,-12.4521,85.84,13,56,6.76,MR,1698615755
414,ghormach,35.7306,63.7826,67.71,29,14,3.85,AF,1698615755
415,isafjordur,66.0755,-23.124,34.12,79,27,3.49,IS,1698615489
416,san julian,21.0167,-102.1667,79.29,29,16,3.85,MX,1698615755
417,cockburn town,21.4612,-71.1419,84.16,74,40,5.75,TC,1698615756
418,bac lieu,9.285,105.7244,79.34,87,97,9.48,VN,1698615756
419,abuyog,10.6667,125.05,76.78,92,47,2.82,PH,1698615756
420,anadyr,64.75,177.4833,28.9,92,75,17.9,RU,1698615696
421,port douglas,-16.4833,145.4667,75.45,64,100,12.06,AU,1698615537
422,port augusta,-32.5,137.7667,64.04,39,99,3.11,AU,1698615756
423,bel ombre,-4.6167,55.4167,78.64,89,75,9.22,SC,1698615757
424,saudarkrokur,65.7461,-19.6394,30.56,80,26,7.45,IS,1698615757
425,altamira,-3.2033,-52.2064,87.89,66,20,3.44,BR,1698615757
426,terenos,-20.4422,-54.8603,78.51,88,75,6.91,BR,1698615757
427,chikwawa,-16.0335,34.8009,80.67,71,28,10.49,MW,1698615757
428,pacasmayo,-7.4006,-79.5714,70.02,77,96,15.97,PE,1698615758
429,ozieri,40.586,9.0012,61.65,93,20,4.23,IT,1698615758
430,hilo,19.7297,-155.09,83.93,71,20,11.5,US,1698615758
431,palmares do sul,-30.2578,-50.5097,72.93,81,98,6.58,BR,1698615758
432,mangrol,21.1167,70.1167,80.8,64,99,3.2,IN,1698615469
433,queenstown,-31.8976,26.8753,40.21,81,22,15.01,ZA,1698615758
434,san mariano,7.5,126.0,72.19,93,38,2.86,PH,1698615758
435,selkirk,50.1436,-96.8845,28.09,79,95,5.01,CA,1698615759
436,hamilton,39.1834,-84.5333,57.24,95,100,3.0,US,1698615584
437,launceston,-41.45,147.1667,55.04,87,75,17.27,AU,1698615759
438,istaravshan,39.9142,69.0033,59.86,40,53,2.26,TJ,1698615759
439,san andres,12.5847,-81.7006,84.22,79,20,3.44,CO,1698615759
440,bordighera,43.7806,7.6645,70.03,77,86,6.96,IT,1698615759
441,nova sintra,14.8667,-24.7167,73.4,68,70,8.61,CV,1698615759
442,nova vicosa,-17.8919,-39.3719,76.53,77,23,14.85,BR,1698615760
443,walvis bay,-22.9575,14.5053,58.37,82,0,5.46,NA,1698615718
444,khovd,48.0056,91.6419,32.99,63,42,0.85,MN,1698615760
445,kiama,-34.6833,150.8667,73.26,57,81,7.0,AU,1698615760
446,nagato,34.3833,131.2,57.85,69,1,2.82,JP,1698615760
447,salahonda,2.1019,-78.7217,79.16,86,100,10.18,CO,1698615760
448,inhambane,-23.865,35.3833,69.91,77,100,20.24,MZ,1698615685
449,umba,66.6871,34.3429,24.08,78,65,4.05,RU,1698615761
450,yevpatoriya,45.1972,33.3558,58.53,66,0,4.99,UA,1698615761
451,smithers,54.7804,-127.1743,30.52,64,75,2.3,CA,1698615761
452,biloxi,30.396,-88.8853,81.03,69,0,10.36,US,1698615711
453,burela de cabo,43.65,-7.4,54.18,87,93,9.1,ES,1698615761
454,vacaria,-28.5122,-50.9339,65.62,88,27,3.42,BR,1698615761
455,kununurra,-15.7667,128.7333,69.78,88,63,1.14,AU,1698615513
456,kayangel,8.0823,134.7173,82.51,75,24,7.78,PW,1698615762
457,trat,12.5,102.5,75.6,93,97,1.95,TH,1698615762
458,yorkton,51.2167,-102.4677,28.24,80,75,12.66,CA,1698615552
459,muisne,0.6,-80.0333,77.31,86,100,9.64,EC,1698615762
460,tamiahua,21.2667,-97.45,81.01,70,28,9.13,MX,1698615762
461,christiana,-27.914,25.1611,53.69,66,3,19.48,ZA,1698615762
462,novodvinsk,64.4165,40.8122,23.79,81,31,3.74,RU,1698615482
463,sola,-13.8833,167.55,83.07,84,75,0.0,VU,1698615763
464,uchaly,54.2996,59.4521,30.67,99,100,1.61,RU,1698615763
465,boca do acre,-8.7522,-67.3978,89.44,49,95,5.44,BR,1698615763
466,kavieng,-2.5744,150.7967,79.99,84,97,14.36,PG,1698615763
467,caxias,38.7031,-9.2767,63.48,91,40,5.75,PT,1698615763
468,orotina,9.912,-84.5234,82.47,93,96,1.77,CR,1698615763
469,kayes,14.0,-11.0,83.07,53,49,7.43,ML,1698615764
470,kenai,60.5544,-151.2583,42.89,76,100,18.41,US,1698615764
471,chunskiy,56.0815,99.6342,20.68,65,0,2.55,RU,1698615764
472,tosontsengel,48.7567,98.2839,24.4,95,100,2.77,MN,1698615764
473,geraldton,-28.7667,114.6,59.41,88,41,14.97,AU,1698615764
474,nyurba,63.2842,118.3319,9.45,97,95,4.29,RU,1698615764
475,zhosaly,45.4878,64.0781,59.59,55,87,10.54,KZ,1698615764
476,varzea da palma,-17.5981,-44.7308,84.25,46,22,5.32,BR,1698615765
477,bandarbeyla,9.4942,50.8122,79.21,81,38,8.16,SO,1698615765
478,son la,21.3167,103.9,66.69,99,100,2.08,VN,1698615765
479,slave lake,55.2834,-114.769,33.78,64,0,3.44,CA,1698615765
480,katima mulilo,-17.5,24.2667,76.53,54,100,8.86,NA,1698615765
481,arraial do cabo,-22.9661,-42.0278,80.56,78,75,13.8,BR,1698615654
482,vorgashor,67.5833,63.95,1.26,97,23,5.66,RU,1698615516
483,lospalos,-8.5186,127.0025,73.98,79,75,2.91,TL,1698615765
484,quatre cocos,-20.2078,57.7625,73.51,79,23,10.92,MU,1698615766
485,dongola,19.1667,30.4833,84.92,22,3,14.34,SD,1698615766
486,kwang binh,17.4833,106.6,78.01,86,100,6.17,VN,1698615766
487,durant,33.994,-96.3708,43.74,88,100,13.8,US,1698615620
488,tralee,52.2704,-9.7026,47.34,90,94,4.18,IE,1698615766
489,mandali,33.7499,45.5541,77.74,28,100,4.59,IQ,1698615766
490,samut prakan,13.5,100.45,80.64,87,100,7.02,TH,1698615766
491,oshakati,-17.7833,15.6833,78.19,11,8,13.13,NA,1698615767
492,sao joao da barra,-21.6403,-41.0511,80.69,86,79,22.28,BR,1698615491
493,zeya,53.75,127.2667,35.49,56,100,1.41,RU,1698615767
494,saltillo,25.4167,-101.0,85.15,46,0,9.22,MX,1698615715
495,coquimbo,-29.9533,-71.3436,65.93,68,0,13.8,CL,1698615766
496,escanaba,45.7453,-87.0646,40.96,45,20,5.75,US,1698615649
497,prince george,53.9166,-122.753,37.62,50,0,8.05,CA,1698615767
498,monrovia,6.3005,-10.7969,78.57,85,26,8.7,LR,1698615767
499,jingzhou,30.3503,112.1903,63.72,76,0,4.03,CN,1698615767
500,kirensk,57.7853,108.1119,24.96,51,100,8.01,RU,1698615768
501,nueve de julio,-35.4444,-60.8831,65.37,75,100,9.22,AR,1698615768
502,ende,-8.8432,121.6623,77.41,74,70,2.33,ID,1698615768
503,revda,56.801,59.9303,25.39,95,100,10.6,RU,1698615768
504,sanctuary point,-35.1114,150.629,72.99,37,86,8.66,AU,1698615768
505,igrim,63.1906,64.4162,14.7,86,98,5.66,RU,1698615769
506,ierapetra,35.01,25.7353,72.14,79,100,1.99,GR,1698615769
507,trairi,-3.2778,-39.2689,79.75,74,34,10.04,BR,1698615621
508,laguna,38.421,-121.4238,75.29,20,0,3.44,US,1698615769
509,maumere,-8.6199,122.2111,78.48,76,79,1.28,ID,1698615769
510,ancud,-41.8697,-73.8203,46.53,63,62,22.21,CL,1698615769
511,cambria,35.5641,-121.0808,79.41,35,0,4.83,US,1698615770
512,retreat,38.8245,-85.8533,55.98,98,100,5.41,US,1698615762
513,gulu,2.7746,32.299,65.01,96,83,1.07,UG,1698615770
514,peace river,56.2501,-117.286,30.51,74,100,6.91,CA,1698615752
515,val-d'or,48.1002,-77.7828,37.49,56,100,2.3,CA,1698615770
516,ilheus,-14.7889,-39.0494,80.42,69,20,11.5,BR,1698615659
517,peshtera,42.0333,24.3,52.59,57,0,5.39,BG,1698615771
518,avanigadda,16.0215,80.9181,77.95,87,13,3.49,IN,1698615771
519,katsuren-haebaru,26.3369,127.8719,72.37,76,0,5.75,JP,1698615771
520,libreville,0.3925,9.4537,78.76,89,72,6.02,GA,1698615771
521,xishan,27.6667,113.5,62.51,85,0,0.98,CN,1698615771
522,codrington,-38.2667,141.9667,55.09,83,26,15.57,AU,1698615772
523,mzimba,-11.9,33.6,73.27,49,80,8.52,MW,1698615772
524,sinabang,2.4803,96.3801,77.76,84,100,2.21,ID,1698615772
525,lagoa,39.05,-27.9833,61.5,64,100,6.15,PT,1698615772
526,mwinilunga,-11.7358,24.4293,63.54,93,47,4.43,ZM,1698615772
527,inirida,3.8653,-67.9239,78.1,90,100,1.52,CO,1698615772
528,vuktyl,63.8567,57.3094,19.11,70,100,10.0,RU,1698615772
529,ak'ordat,15.5486,37.8867,81.84,55,89,2.15,ER,1698615773
530,torghay,49.6339,63.4981,50.72,85,10,14.34,KZ,1698615773
531,al jawf,29.5,38.75,63.01,73,58,9.06,SA,1698615773
532,salekhard,66.53,66.6019,5.49,99,96,3.31,RU,1698615773
533,mugia,43.1041,-9.2179,55.17,74,100,21.92,ES,1698615550
534,hermiston,45.8404,-119.2895,49.95,51,0,3.44,US,1698615773
535,creel,27.75,-107.6333,65.01,20,0,14.03,MX,1698615773
536,ambon,-3.6954,128.1814,77.14,88,20,6.91,ID,1698615773
537,bouna,9.2667,-3.0,80.6,53,3,3.29,CI,1698615774
538,plainview,40.7765,-73.4673,54.46,89,100,8.05,US,1698615774
539,rybnoye,54.7256,39.5119,36.37,90,100,10.78,RU,1698615774
540,sao luiz gonzaga,-28.4083,-54.9608,74.37,83,2,6.02,BR,1698615533
541,kruisfontein,-34.0033,24.7314,55.74,50,68,11.45,ZA,1698615774
542,marsh harbour,26.5412,-77.0636,78.87,70,12,20.8,BS,1698615774
543,kursk,51.7303,36.1939,39.4,86,97,7.0,RU,1698615774
544,gaspra,44.4333,34.1,61.25,56,0,5.37,UA,1698615775
545,zaragoza,41.6561,-0.8773,66.65,46,40,8.05,ES,1698615539
546,plesetsk,62.708,40.2916,20.95,95,97,4.38,RU,1698615775
547,sheohar,26.5167,85.3,68.02,64,0,3.94,IN,1698615775
548,valozhyn,54.0909,26.5225,44.76,94,100,13.98,BY,1698615775
549,wabag,-5.4781,143.7021,60.12,90,93,1.25,PG,1698615775
550,aripuana,-9.1667,-60.6333,92.82,30,93,2.62,BR,1698615578
551,alegre,-20.7636,-41.5331,78.69,73,95,3.44,BR,1698615664
552,praia da vitoria,38.7333,-27.0667,59.25,88,20,7.45,PT,1698615776
553,saguenay,48.4168,-71.0657,33.91,63,40,6.91,CA,1698615776
554,lewistown,40.5992,-77.5714,53.19,100,100,0.0,US,1698615692
555,bemidji,47.4736,-94.8803,27.05,70,100,13.8,US,1698615776
556,gadzhiyevo,69.2551,33.3362,19.76,92,100,5.39,RU,1698615776
557,fisterra,42.9049,-9.2629,55.02,72,100,22.93,ES,1698615776
558,tranqueras,-31.2,-55.75,72.84,81,0,4.99,UY,1698615776
559,strathalbyn,-35.2667,138.9,60.19,85,23,14.92,AU,1698615777
560,usogorsk,63.4106,48.6872,25.66,83,100,5.73,RU,1698615777
561,wainwright,52.839,-110.8572,33.21,46,23,11.79,CA,1698615777
562,kupang,-10.1667,123.5833,77.58,83,40,4.61,ID,1698615777
563,la punta,-33.1837,-66.3127,74.07,39,0,16.53,AR,1698615777
564,pacific grove,36.6177,-121.9166,77.54,24,0,13.0,US,1698615704
565,chinchilla,-26.75,150.6333,69.84,52,0,13.71,AU,1698615777
566,patiya,22.2931,91.9762,67.17,86,100,4.14,BD,1698615777
567,kourou,5.1552,-52.6478,84.25,82,93,12.77,GF,1698615778
568,sao vicente,-23.9631,-46.3919,81.27,70,100,6.91,BR,1698615746
569,grajau,-5.8194,-46.1386,89.47,28,35,4.34,BR,1698615778
570,abatskoye,56.2875,70.4555,27.27,79,100,14.52,RU,1698615778
571,waingapu,-9.6567,120.2641,78.76,83,44,5.64,ID,1698615778
572,portland,45.5234,-122.6762,61.95,39,0,17.27,US,1698615509
573,egilsstadir,65.2653,-14.3948,33.71,100,75,1.14,IS,1698615742
574,okanagan,50.3639,-119.35,45.41,58,22,1.36,CA,1698615779
575,gamba,-2.65,10.0,77.68,91,46,6.33,GA,1698615779
576,villa gesell,-37.2639,-56.973,59.05,56,100,17.07,AR,1698615779
577,bocaiuva,-17.1078,-43.815,91.11,46,5,4.68,BR,1698615779
578,yatou,37.15,122.3833,61.14,86,3,9.04,CN,1698615779
579,copala,16.65,-98.9833,83.48,76,39,9.08,MX,1698615779
580,bima,-8.4667,118.7167,75.04,89,18,1.86,ID,1698615779
581,northam,51.0333,-4.2167,52.66,94,98,22.15,GB,1698615780
582,turpan,42.9333,89.1667,57.54,39,100,2.08,CN,1698615780
583,leava,-14.3,-178.1667,81.97,77,38,7.38,WF,1698615780
584,sassandra,4.95,-6.0833,77.86,88,1,4.5,CI,1698615548
585,moroto,2.5345,34.6666,67.93,83,94,4.54,UG,1698615780
586,katabu,-4.9333,122.5167,73.83,89,66,2.95,ID,1698615780
587,la libertad,-2.2333,-80.9,78.46,78,75,12.66,EC,1698615780
